{
  "Afghanistan": [
    {
      "cc": "AF",
      "lat": 34.5167,
      "lon": 69.1833,
      "name": "Kabul",
      "tz": "Asia/Kabul"
    }
  ],
  "Albania": [
    {
      "cc": "AL",
      "lat": 41.3275,
      "lon": 19.8189,
      "name": "Tirana",
      "tz": "Europe/Tirane"
    }
  ],
  "Algeria": [
    {
      "cc": "DZ",
      "lat": 36.7394,
      "lon": 3.0506,
      "name": "Algiers",
      "tz": "Africa/Algiers"
    }
  ],
  "Andorra": [
    {
      "cc": "AD",
      "lat": 42.5078,
      "lon": 1.5211,
      "name": "Andorra la Vella",
      "tz": "Europe/Andorra"
    }
  ],
  "Angola": [
    {
      "cc": "AO",
      "lat": -8.8383,
      "lon": 13.2344,
      "name": "Luanda",
      "tz": "Africa/Luanda"
    }
  ],
  "Antigua and Barbuda": [
    {
      "cc": "AG",
      "lat": 17.118,
      "lon": -61.85,
      "name": "Saint John's",
      "tz": "America/Antigua"
    }
  ],
  "Argentina": [
    {
      "cc": "AR",
      "lat": -34.6037,
      "lon": -58.3816,
      "name": "Buenos Aires",
      "tz": "America/Argentina/Buenos_Aires"
    }
  ],
  "Armenia": [
    {
      "cc": "AM",
      "lat": 40.1833,
      "lon": 44.5167,
      "name": "Yerevan",
      "tz": "Asia/Yerevan"
    }
  ],
  "Australia": [
    {
      "cc": "AU",
      "lat": -35.2835,
      "lon": 149.1281,
      "name": "Canberra",
      "tz": "Australia/Sydney"
    }
  ],
  "Austria": [
    {
      "cc": "AT",
      "lat": 48.2082,
      "lon": 16.3738,
      "name": "Vienna",
      "tz": "Europe/Vienna"
    }
  ],
  "Azerbaijan": [
    {
      "cc": "AZ",
      "lat": 40.3953,
      "lon": 49.8822,
      "name": "Baku",
      "tz": "Asia/Baku"
    }
  ]
}
